[{"id":"h_1770431935670","name":"大手前病院","address":"〒540-0008 大阪府大阪市中央区大手前1-5-34","tel":"06-6941-0484","lat":34.6893804,"lng":135.5195826,"beds":{"acute":355,"general":0,"rehab":0,"long":0,"chiiki":46,"palliative":0,"psy":0,"disability":0},"tags":["急性期","地域包括"],"note":"","nearest":""},{"id":"h_1770432430676","name":"大阪医療センター","address":"〒540-0006 大阪府大阪市中央区法円坂2丁目1-14","tel":"06-6942-1331","lat":34.6802097,"lng":135.5206664,"beds":{"acute":605,"general":0,"rehab":0,"long":0,"chiiki":0,"palliative":0,"psy":0,"disability":0},"tags":["急性期"],"note":"","nearest":""},{"id":"h_1770432503477","name":"大阪重粒子線センター","address":"〒540-0008 大阪府大阪市中央区大手前3丁目1-10","tel":"06-6947-3210","lat":34.684929,"lng":135.5202611,"beds":{"acute":0,"general":0,"rehab":0,"long":0,"chiiki":0,"palliative":0,"psy":0,"disability":0},"tags":[],"note":"外来専門","nearest":""},{"id":"h_1770432570177","name":"高津病院","address":"〒542-0066 大阪府大阪市中央区瓦屋町3-2-7","tel":"06-6761-1421","lat":34.6685512,"lng":135.5130791,"beds":{"acute":25,"general":0,"rehab":0,"long":0,"chiiki":28,"palliative":0,"psy":0,"disability":0},"tags":["急性期","地域包括"],"note":"","nearest":""},{"id":"h_1770434024953","name":"大阪国際がんセンター","address":"〒541-8567 大阪府大阪市中央区大手前3丁目1-69","tel":"06-6945-1181","lat":34.6850338,"lng":135.5193137,"beds":{"acute":0,"general":500,"rehab":0,"long":0,"chiiki":0,"palliative":0,"psy":0,"disability":0},"tags":["一般"],"note":"","nearest":""},{"id":"h_1770434082567","name":"脳神経外科　日本橋病院","address":"〒542-0072 大阪府大阪市中央区高津3丁目2-22","tel":"06-6643-2022","lat":34.6663617,"lng":135.5093309,"beds":{"acute":0,"general":75,"rehab":0,"long":0,"chiiki":0,"palliative":0,"psy":0,"disability":0},"tags":["一般"],"note":"","nearest":""},{"id":"h_1770434136242","name":"原田病院","address":"〒542-0082 大阪府大阪市中央区島之内2丁目17-15","tel":"06-6211-1006","lat":34.6691636,"lng":135.5077752,"beds":{"acute":0,"general":37,"rehab":0,"long":0,"chiiki":0,"palliative":0,"psy":0,"disability":0},"tags":["一般"],"note":"","nearest":""},{"id":"h_1770434649507","name":"飯島病院","address":"〒542-0082 大阪府大阪市中央区島之内2丁目15-4","tel":"06-6211-4114","lat":34.6698823,"lng":135.5069234,"beds":{"acute":0,"general":28,"rehab":0,"long":0,"chiiki":0,"palliative":0,"psy":0,"disability":0},"tags":["一般"],"note":"産婦人科","nearest":""},{"id":"h_1770434715486","name":"大阪歯科大学附属病院","address":"〒540-0008 大阪府大阪市中央区大手前1丁目5-17","tel":"06-6910-1111","lat":34.690045,"lng":135.5194881,"beds":{"acute":0,"general":35,"rehab":0,"long":0,"chiiki":0,"palliative":0,"psy":0,"disability":0},"tags":["一般"],"note":"歯科・口腔外科","nearest":""},{"id":"h_1770442941061","name":"大阪府済生会泉尾病院","address":"〒551-0032 大阪府大阪市大正区北村3丁目4-5","tel":"06-6552-0091","lat":34.6493864,"lng":135.4667329,"tags":["急性期","回復期","療養"],"beds":{"acute":274,"general":0,"rehab":60,"long":40,"chiiki":60,"psy":0,"palliative":0,"disability":0},"note":"","nearest":""},{"id":"h_1770443136169","name":"大正病院","address":"〒551-0002 大阪府大阪市大正区三軒家東5丁目5-16","tel":"06-6552-0621","lat":34.6601181,"lng":135.475758,"tags":["療養","地域包括","ST在籍"],"beds":{"acute":0,"general":0,"rehab":0,"long":55,"chiiki":90,"psy":0,"palliative":0,"disability":0},"note":"","nearest":""},{"id":"h_1770443967961","name":"ほくとクリニック病院","address":"〒551-0001 大阪府大阪市大正区三軒家西1丁目18-7","tel":"06-6554-1399","lat":34.664903,"lng":135.4778066,"tags":["精神"],"beds":{"acute":0,"general":0,"rehab":0,"long":0,"chiiki":0,"psy":50,"palliative":0,"disability":0},"note":"","nearest":""},{"id":"h_1770460518801","name":"大阪掖済会病院","address":"〒550-0022 大阪府大阪市西区本田2丁目1-10","tel":"06-6581-2881","nearest":"阪神なんば線　九条駅 大阪メトロ中央線　阿波座駅 大阪メトロ千日前線　西長堀駅","lat":34.6784885,"lng":135.4792573,"tags":["急性期"],"beds":{"acute":135,"general":0,"rehab":0,"long":0,"chiiki":0,"psy":0,"palliative":0,"disability":0},"note":""},{"id":"h_1770460420711","name":"大野記念病院","address":"〒550-0015 大阪府大阪市西区南堀江1丁目26-10","tel":"06-6531-1815","nearest":"南海本線　難波駅","lat":34.6701187,"lng":135.4934512,"tags":["急性期","地域包括","障害","透析"],"beds":{"acute":173,"general":0,"rehab":0,"long":0,"chiiki":45,"psy":0,"palliative":0,"disability":28},"note":""},{"id":"h_1770460262487","name":"吉川病院","address":"〒550-0025 大阪府大阪市西区九条南3丁目29-14","tel":"06-6583-4114","nearest":"阪神なんば線　九条駅","lat":34.6730411,"lng":135.4687377,"tags":["一般","療養"],"beds":{"acute":0,"general":22,"rehab":0,"long":50,"chiiki":0,"psy":0,"palliative":0,"disability":0},"note":""},{"id":"h_1770458700921","name":"日本生命病院","address":"〒550-0006 大阪府大阪市西区江之子島2丁目1-54","tel":"06-6443-3446","nearest":"大阪メトロ中央線／大阪メトロ千日前線　阿波座駅","lat":34.6817798,"lng":135.4851021,"tags":["急性期"],"beds":{"acute":350,"general":0,"rehab":0,"long":0,"chiiki":0,"psy":0,"palliative":0,"disability":0},"note":""},{"id":"h_1770454716887","name":"多根記念眼科病院","address":"〒550-0024 大阪府大阪市西区境川1丁目1-39","tel":"06-6581-5800","nearest":"大阪環状線　大正駅 阪神なんば線　九条駅 阪神なんば線　ドーム前駅 大阪メトロ長堀鶴見緑地線　ドーム前千代崎駅","lat":34.6689881,"lng":135.4731443,"tags":["一般"],"beds":{"acute":0,"general":58,"rehab":0,"long":0,"chiiki":0,"psy":0,"palliative":0,"disability":0},"note":""},{"id":"h_1770454624644","name":"多根総合病院","address":"〒550-0025 大阪府大阪市西区九条南1-12-21","tel":"06-6581-1071","nearest":"大阪環状線　大正駅 阪神なんば線　ドーム前駅 大阪メトロ長堀鶴見緑地線　ドーム前千代崎駅","lat":34.6687603,"lng":135.4745122,"tags":["急性期","緩和ケア"],"beds":{"acute":304,"general":0,"rehab":0,"long":0,"chiiki":0,"psy":0,"palliative":0,"disability":0},"note":"緩和ケア病床あり"},{"id":"h_1770458950205","name":"日新会病院","address":"〒550-0013　大阪市西区新町4-4-8","tel":"06-6531-3038","nearest":"大阪メトロ 長堀鶴見緑地線 西長堀駅","lat":34.6763107,"lng":135.4870396,"tags":["療養"],"beds":{"acute":0,"general":0,"rehab":0,"long":60,"chiiki":0,"psy":0,"palliative":0,"disability":0},"note":""},{"id":"h_1770467162023","name":"内藤病院","address":"〒550-0027 大阪府大阪市西区九条1丁目15-23","tel":"06-6581-0085","nearest":"阪神なんば線　九条駅","lat":34.6745421,"lng":135.4758371,"tags":["一般","療養","地域包括"],"beds":{"acute":0,"general":27,"rehab":0,"long":45,"chiiki":0,"psy":0,"palliative":0,"disability":0},"note":"地域包括ケア病棟あり"},{"id":"h_1770425726475","name":"なにわ生野病院","address":"〒556-0014 大阪府大阪市浪速区大国１丁目１０−３","tel":"06-6632-9915","nearest":"大阪メトロ御堂筋線　大国町駅","lat":34.65262999999999,"lng":135.4971331,"tags":["急性期","透析","ST在籍"],"beds":{"acute":173,"general":0,"rehab":0,"long":0,"chiiki":0,"psy":0,"palliative":0,"disability":0},"note":""},{"id":"s1","name":"富永病院","address":"〒556-0017 大阪府大阪市浪速区湊町１丁目４−４８","tel":"06-6568-1601","nearest":"大阪難波駅","lat":34.6674856,"lng":135.4947997,"tags":["急性期","回復期"],"beds":{"acute":179,"general":0,"rehab":60,"long":0,"chiiki":0,"psy":0,"palliative":0,"disability":0},"note":""},{"id":"s2","name":"なにわ病院","address":"〒556-0021 大阪府大阪市浪速区幸町２丁目３−１１","tel":"06-6568-2681","nearest":"桜川駅","lat":34.6688803,"lng":135.4895173,"tags":["療養","地域包括","ST在籍"],"beds":{"acute":0,"general":0,"rehab":0,"long":109,"chiiki":31,"psy":0,"palliative":0,"disability":0},"note":"抜糸〇"},{"id":"h_1770425969190","name":"愛染橋病院","address":"〒556-0005 大阪府大阪市浪速区日本橋５丁目１６−１５","tel":"06-6633-2801","nearest":"南海高野線　今宮戎駅 大阪メトロ堺筋線　恵美須町駅","lat":34.6576083,"lng":135.5049396,"tags":["一般","地域包括"],"beds":{"acute":0,"general":107,"rehab":0,"long":0,"chiiki":40,"psy":0,"palliative":0,"disability":0},"note":"抜糸×　送迎〇"},{"id":"h_1770426125059","name":"思温病院","address":"〒557-0034 大阪府大阪市西成区松１丁目１−３１","tel":"06-6657-3711","nearest":"大阪メトロ四つ橋線　花園町駅 南海本線　天下茶屋駅","lat":34.64154389999999,"lng":135.495476,"tags":["急性期","療養","地域包括","ST在籍"],"beds":{"acute":60,"general":0,"rehab":0,"long":60,"chiiki":60,"psy":0,"palliative":0,"disability":0},"note":"抜糸〇　送迎〇"},{"id":"h_1770427501311","name":"渡辺病院","address":"〒557-0014 大阪府大阪市西成区天下茶屋１丁目１５−１","tel":"06-6661-6318","nearest":"南海本線　天下茶屋駅 阪堺電軌阪堺線　松田町駅","lat":34.640854,"lng":135.4999543,"tags":["一般"],"beds":{"acute":0,"general":50,"rehab":0,"long":0,"chiiki":0,"psy":0,"palliative":0,"disability":0},"note":"精神〇"},{"id":"h_1770426242026","name":"浦上病院","address":"〒557-0003 大阪府大阪市西成区天下茶屋北２丁目５−１５","tel":"06-6649-2191","nearest":"南海高野線　萩ノ茶屋駅 大阪メトロ四つ橋線　花園町駅 阪堺電軌阪堺線　今船駅","lat":34.642985,"lng":135.5003638,"tags":["療養","ST在籍"],"beds":{"acute":0,"general":0,"rehab":0,"long":51,"chiiki":0,"psy":0,"palliative":0,"disability":0},"note":"抜糸〇　送迎〇"},{"id":"h_1770426698444","name":"大和中央病院","address":"〒557-0025 大阪府大阪市西成区長橋１丁目２−７","tel":"06-6632-6181","nearest":"大阪メトロ四ツ橋線　花園町駅","lat":34.6479748,"lng":135.4969858,"tags":["急性期","地域包括","障害"],"beds":{"acute":35,"general":0,"rehab":0,"long":0,"chiiki":65,"psy":0,"palliative":0,"disability":65},"note":"抜糸〇　送迎〇"},{"id":"h_1770427572419","name":"杏林記念病院","address":"〒557-0014 大阪府大阪市西成区天下茶屋１丁目１８−２４","tel":"06-6652-5111","nearest":"阪堺電軌阪堺線　今船駅","lat":34.6427043,"lng":135.4997037,"tags":["急性期"],"beds":{"acute":120,"general":0,"rehab":0,"long":0,"chiiki":0,"psy":0,"palliative":0,"disability":0},"note":""},{"id":"h_1770427017317","name":"山本第一病院","address":"〒557-0041 大阪府大阪市西成区岸里３丁目１０−９","tel":"06-6658-5511","nearest":"南海本線　岸里玉出駅 阪堺電軌阪堺線　東玉出駅 大阪メトロ四つ橋線　岸里駅","lat":34.629814,"lng":135.4926044,"tags":["療養"],"beds":{"acute":0,"general":0,"rehab":0,"long":120,"chiiki":0,"psy":0,"palliative":0,"disability":0},"note":""},{"id":"h_1770428504475","name":"大阪社会医療センター 付属病院","address":"〒557-0004 大阪府大阪市西成区萩之茶屋１丁目１１−６","tel":"06-6649-0321","nearest":"大阪環状線　新今宮駅 大阪メトロ御堂筋線　動物園前駅 阪堺電軌阪堺線　新今宮駅前駅","lat":34.6476248,"lng":135.5000051,"tags":["一般","地域包括"],"beds":{"acute":0,"general":50,"rehab":0,"long":0,"chiiki":30,"psy":0,"palliative":0,"disability":0},"note":"抜糸〇　送迎〇"},{"id":"h_1770427233036","name":"津守病院","address":"〒557-0062 大阪府大阪市西成区津守３丁目５−１８","tel":"06-6659-6651","nearest":"南海汐見橋線　西天下茶屋駅","lat":34.6410312,"lng":135.4825483,"tags":["療養"],"beds":{"acute":0,"general":0,"rehab":0,"long":80,"chiiki":0,"psy":0,"palliative":0,"disability":0},"note":""},{"id":"h_1770427300683","name":"愛壽記念病院","address":"〒557-0025 大阪府大阪市西成区長橋３丁目６−４５","tel":"06-6567-0881","nearest":"環状線　今宮駅","lat":34.6492965,"lng":135.4883925,"tags":["一般","療養"],"beds":{"acute":0,"general":60,"rehab":0,"long":139,"chiiki":0,"psy":0,"palliative":0,"disability":0},"note":"送迎〇"},{"id":"h_1770428805754","name":"まちだ胃腸病院","address":"〒557-0001 大阪府大阪市西成区山王１丁目１−１５","tel":"06-6649-1251","nearest":"環状線　天王寺駅 近鉄南大阪線　大阪阿部野橋駅 阪堺電軌上町線　天王寺駅前駅 大和路線　新今宮駅 大阪メトロ御堂筋線　動物園前駅 阪堺電軌阪堺線　新今宮駅前駅","lat":34.6483131,"lng":135.507257,"tags":["一般","療養"],"beds":{"acute":0,"general":32,"rehab":0,"long":28,"chiiki":0,"psy":0,"palliative":0,"disability":0},"note":""},{"id":"h_1770426819809","name":"山本第三病院","address":"〒557-0063 大阪府大阪市西成区南津守４丁目５−２０","tel":"06-6658-6611","nearest":"大阪メトロ四つ橋線　北加賀屋駅","lat":34.6289826,"lng":135.4822188,"tags":["急性期","回復期","療養"],"beds":{"acute":239,"general":0,"rehab":27,"long":81,"chiiki":0,"psy":0,"palliative":0,"disability":0},"note":"抜糸×"},{"id":"h_1770474370849","name":"阪和記念病院","address":"〒558-0041 大阪府大阪市住吉区南住吉3-5-8","tel":"06-6696-5591","nearest":"阪和線(天王寺～和歌山)　我孫子町駅 南海高野線　沢ノ町駅","lat":34.6037596,"lng":135.503686,"tags":["急性期","回復期","療養","地域包括"],"beds":{"acute":141,"general":0,"rehab":54,"long":211,"chiiki":54,"psy":0,"palliative":0,"disability":0},"note":"人工関節センター〇"},{"id":"h_1770474552556","name":"大阪急性期・総合医療センター","address":"〒558-8558 大阪府大阪市住吉区万代東3丁目1-56","tel":"06-6692-1201","nearest":"南海電鉄高野線　帝塚山駅 JR環状線、大阪メトロ谷町線・御堂筋線　天王寺駅 近鉄南大阪線　大阪阿部野橋駅 阪堺電軌上町線　天王寺駅前駅 JR阪和線、大阪メトロ御堂筋線　長居駅","lat":34.6167806,"lng":135.5049049,"tags":["急性期","精神"],"beds":{"acute":831,"general":0,"rehab":0,"long":0,"chiiki":0,"psy":34,"palliative":0,"disability":0},"note":""},{"id":"h_1770474630679","name":"阪和病院","address":"〒558-0041 大阪府大阪市住吉区南住吉3丁目3-7","tel":"06-6692-1181","nearest":"阪和線(天王寺～和歌山)　我孫子町駅","lat":34.6047652,"lng":135.5052693,"tags":["療養"],"beds":{"acute":0,"general":0,"rehab":0,"long":432,"chiiki":0,"psy":0,"palliative":0,"disability":0},"note":""},{"id":"h_1770474710278","name":"越宗整形外科病院","address":"〒558-0045 大阪府大阪市住吉区住吉2丁目9-109","tel":"06-6672-2251","nearest":"南海本線　住吉大社駅 阪堺電軌阪堺線　住吉鳥居前駅 阪堺電軌上町線　住吉駅","lat":34.6141581,"lng":135.4922367,"tags":["一般","地域包括"],"beds":{"acute":0,"general":10,"rehab":0,"long":0,"chiiki":20,"psy":0,"palliative":0,"disability":0},"note":""},{"id":"h_1770474798472","name":"阪和第二住吉病院","address":"〒558-0054 大阪府大阪市住吉区帝塚山東4丁目7-8","tel":"06-4701-6671","nearest":"阪堺電軌上町線　帝塚山四丁目駅","lat":34.6162272,"lng":135.4997888,"tags":["療養"],"beds":{"acute":0,"general":0,"rehab":0,"long":200,"chiiki":0,"psy":0,"palliative":0,"disability":0},"note":""},{"id":"h_1770474893815","name":"あびこ病院","address":"〒558-0014 大阪府大阪市住吉区我孫子3丁目3-20","tel":"06-6691-1155","nearest":"阪和線(天王寺～和歌山)　我孫子町駅 大阪メトロ御堂筋線　あびこ駅","lat":34.600442,"lng":135.5096969,"tags":["急性期","地域包括"],"beds":{"acute":43,"general":0,"rehab":0,"long":0,"chiiki":92,"psy":0,"palliative":0,"disability":0},"note":""},{"id":"h_1770474972699","name":"オりオノ病院","address":"〒558-0032 大阪府大阪市住吉区遠里小野1丁目1-15","tel":"06-6694-1181","nearest":"阪和線(天王寺～和歌山)　我孫子町駅 南海高野線　我孫子前駅","lat":34.6009508,"lng":135.4987525,"tags":["一般","療養"],"beds":{"acute":0,"general":10,"rehab":0,"long":107,"chiiki":0,"psy":0,"palliative":0,"disability":0},"note":""},{"id":"h_1770475533446","name":"朋愛病院","address":"〒537-0012 大阪府大阪市東成区大今里1丁目25-11","tel":"06-6973-1122","nearest":"近鉄大阪線　今里駅 大阪メトロ千日前線　今里駅","lat":34.6724362,"lng":135.5461789,"tags":["一般","回復期","療養","地域包括"],"beds":{"acute":0,"general":53,"rehab":56,"long":38,"chiiki":16,"psy":0,"palliative":0,"disability":0},"note":""},{"id":"h_1770475631036","name":"矢木脳神経外科病院","address":"〒537-0011 大阪府大阪市東成区東今里2丁目12-13","tel":"06-6978-2307","nearest":"大阪メトロ中央線　緑橋駅","lat":34.6779608,"lng":135.551382,"tags":["急性期","地域包括"],"beds":{"acute":40,"general":0,"rehab":0,"long":0,"chiiki":36,"psy":0,"palliative":0,"disability":0},"note":""},{"id":"h_1770475703262","name":"東成病院","address":"〒537-0014 大阪府大阪市東成区大今里西2丁目7-17","tel":"06-6981-2508","nearest":"近鉄大阪線　今里駅 大阪メトロ千日前線　今里駅","lat":34.6705129,"lng":135.5407446,"tags":["一般"],"beds":{"acute":0,"general":55,"rehab":0,"long":0,"chiiki":0,"psy":0,"palliative":0,"disability":0},"note":""},{"id":"h_1770475769662","name":"公道会病院","address":"〒537-0013 大阪府大阪市東成区大今里南5丁目5-23","tel":"06-6976-3081","nearest":"大阪メトロ千日前線　新深江駅","lat":34.6673357,"lng":135.5540519,"tags":["一般","療養"],"beds":{"acute":0,"general":36,"rehab":0,"long":105,"chiiki":0,"psy":0,"palliative":0,"disability":0},"note":""},{"id":"h_1770475919429","name":"西眼科病院","address":"〒537-0025 大阪府大阪市東成区中道4丁目14-26","tel":"06-6981-1132","nearest":"大阪環状線　玉造駅","lat":34.6744075,"lng":135.5370023,"tags":["一般"],"beds":{"acute":0,"general":28,"rehab":0,"long":0,"chiiki":0,"psy":0,"palliative":0,"disability":0},"note":""},{"id":"h_1770476063735","name":"中本病院","address":"〒537-0025 大阪府大阪市東成区中道4丁目13-12","tel":"06-6972-2121","nearest":"大阪環状線　玉造駅","lat":34.6743793,"lng":135.5366611,"tags":["療養","地域包括"],"beds":{"acute":0,"general":0,"rehab":0,"long":60,"chiiki":55,"psy":0,"palliative":0,"disability":0},"note":""},{"id":"h_1770476227649","name":"外科野崎病院","address":"〒537-0002 大阪府大阪市東成区深江南2丁目20-15","tel":"06-6971-3506","nearest":"大阪メトロ千日前線　新深江駅","lat":34.6679943,"lng":135.5589585,"tags":["一般","地域包括"],"beds":{"acute":0,"general":47,"rehab":0,"long":0,"chiiki":0,"psy":0,"palliative":0,"disability":0},"note":"地域包括ケア病棟あり"},{"id":"h_1770452894513","name":"育和会記念病院","address":"〒544-0004 大阪府大阪市生野区巽北3丁目20-29","tel":"06-6758-8000","nearest":"環状線　平野駅 大阪メトロ谷町線　平野駅 大阪メトロ千日前線　北巽駅","lat":34.6557724,"lng":135.5550702,"tags":["急性期","回復期"],"beds":{"acute":218,"general":0,"rehab":47,"long":0,"chiiki":0,"psy":0,"palliative":0,"disability":0},"note":""},{"id":"h_1770452969673","name":"生野中央病院","address":"〒544-0005 大阪府大阪市生野区中川5丁目4-2","tel":"06-6751-3731","nearest":"近鉄大阪線　今里駅 大阪メトロ千日前線　今里駅","lat":34.6584138,"lng":135.5457723,"tags":["一般","療養"],"beds":{"acute":0,"general":60,"rehab":0,"long":88,"chiiki":0,"psy":0,"palliative":0,"disability":0},"note":""},{"id":"h_1770453091952","name":"生野病院","address":"〒544-0032 大阪府大阪市生野区中川西3丁目4-7","tel":"06-6712-3451","nearest":"大阪環状線　桃谷駅","lat":34.6570092,"lng":135.5409627,"tags":["障害"],"beds":{"acute":0,"general":0,"rehab":0,"long":0,"chiiki":0,"psy":0,"palliative":0,"disability":90},"note":""},{"id":"h_1770453210665","name":"村田病院","address":"〒544-0011 大阪府大阪市生野区田島4丁目2-1","tel":"06-6757-0011","nearest":"大和路線　東部市場前駅 大阪メトロ千日前線　北巽駅","lat":34.6471324,"lng":135.5400755,"tags":["急性期","回復期"],"beds":{"acute":40,"general":0,"rehab":30,"long":0,"chiiki":0,"psy":0,"palliative":0,"disability":0},"note":"脳神経外科専門"},{"id":"h_1770453287684","name":"相生病院","address":"〒544-0024 大阪府大阪市生野区生野西3丁目2-5","tel":"06-6731-0201","nearest":"大阪環状線　寺田町駅","lat":34.6517357,"lng":135.5303712,"tags":["一般","療養"],"beds":{"acute":0,"general":44,"rehab":0,"long":56,"chiiki":0,"psy":0,"palliative":0,"disability":0},"note":""},{"id":"h_1770453389893","name":"共和病院","address":"〒544-0021 大阪府大阪市生野区勝山南4丁目16-10","tel":"06-6718-2221","nearest":"大阪環状線　鶴橋駅 大阪環状線　桃谷駅","lat":34.6525938,"lng":135.5404164,"tags":["急性期","療養","地域包括"],"beds":{"acute":32,"general":0,"rehab":0,"long":84,"chiiki":44,"psy":0,"palliative":0,"disability":0},"note":""},{"id":"h_1770453459744","name":"大楠病院","address":"〒544-0022 大阪府大阪市生野区舎利寺2丁目10-14","tel":"06-6712-0271","nearest":"大和路線　東部市場前駅 近鉄大阪線　今里駅 大阪メトロ千日前線　今里駅","lat":34.6497967,"lng":135.5385256,"tags":["療養"],"beds":{"acute":0,"general":0,"rehab":0,"long":45,"chiiki":0,"psy":0,"palliative":0,"disability":0},"note":""},{"id":"h_1770453519614","name":"松崎病院","address":"〒544-0001 大阪府大阪市生野区新今里7丁目4-8","tel":"06-6753-0255","nearest":"大阪メトロ千日前線　小路駅","lat":34.6616587,"lng":135.5524206,"tags":["急性期"],"beds":{"acute":113,"general":0,"rehab":0,"long":0,"chiiki":0,"psy":0,"palliative":0,"disability":0},"note":""},{"id":"h_1770453699890","name":"生野愛和病院","address":"〒544-0015 大阪府大阪市生野区巽南5丁目7-64","tel":"06-6791-7800","nearest":"大和路線　平野駅","lat":34.6360919,"lng":135.5501287,"tags":["一般","療養","透析"],"beds":{"acute":0,"general":45,"rehab":0,"long":48,"chiiki":0,"psy":0,"palliative":0,"disability":0},"note":"地域包括ケア病棟含む？"},{"id":"h_1770453767924","name":"啓生病院","address":"〒544-0011 大阪府大阪市生野区田島6丁目4-1","tel":"06-6758-3301","nearest":"大和路線　東部市場前駅","lat":34.6424974,"lng":135.5399119,"tags":["一般"],"beds":{"acute":0,"general":50,"rehab":0,"long":0,"chiiki":0,"psy":0,"palliative":0,"disability":0},"note":""},{"id":"h_1770453828101","name":"芥川病院","address":"〒544-0021 大阪府大阪市生野区勝山南4丁目4-18","tel":"06-6712-1023","nearest":"大阪環状線　桃谷駅","lat":34.6532344,"lng":135.5380039,"tags":["療養"],"beds":{"acute":0,"general":0,"rehab":0,"long":50,"chiiki":0,"psy":0,"palliative":0,"disability":0},"note":""},{"id":"h_1770453899290","name":"新大阪病院","address":"〒544-0011 大阪府大阪市生野区田島1丁目16-6","tel":"06-6758-7007","nearest":"大阪メトロ千日前線　北巽駅","lat":34.6532656,"lng":135.5435872,"tags":["一般","療養","透析","ST在籍"],"beds":{"acute":0,"general":60,"rehab":0,"long":139,"chiiki":0,"psy":0,"palliative":0,"disability":0},"note":""},{"id":"h_1770453970861","name":"朝日生野病院","address":"〒544-0025 大阪府大阪市生野区生野東3丁目3-23","tel":"06-6718-1161","nearest":"大阪環状線　寺田町駅","lat":34.6506236,"lng":135.5341539,"tags":["療養","障害"],"beds":{"acute":0,"general":0,"rehab":0,"long":93,"chiiki":0,"psy":0,"palliative":0,"disability":48},"note":""},{"id":"h_1770454087759","name":"吉栄会病院","address":"〒544-0002 大阪府大阪市生野区小路2丁目14-5","tel":"06-6752-7867","nearest":"近鉄大阪線　今里駅 大阪メトロ千日前線　今里駅 大阪メトロ千日前線　小路駅","lat":34.6615397,"lng":135.5545645,"tags":["一般","回復期"],"beds":{"acute":0,"general":29,"rehab":32,"long":0,"chiiki":0,"psy":0,"palliative":0,"disability":0},"note":""},{"id":"h_1770454209502","name":"アエバ外科病院","address":"〒544-0021 大阪府大阪市生野区勝山南4丁目6-5","tel":"06-6715-0771","nearest":"大阪環状線　桃谷駅","lat":34.6535091,"lng":135.5395319,"tags":["一般"],"beds":{"acute":0,"general":0,"rehab":0,"long":0,"chiiki":0,"psy":0,"palliative":0,"disability":0},"note":"2026/1～入院受け入れ停止中"},{"id":"h_1770454276823","name":"大阪脳卒中リハビリテーション病院","address":"〒544-0015 大阪府大阪市生野区巽南３丁目１９−３","tel":"06-6752-7531","nearest":"地下鉄千日前線 南巽駅","lat":34.640848,"lng":135.5529518,"tags":["回復期"],"beds":{"acute":0,"general":0,"rehab":120,"long":0,"chiiki":0,"psy":0,"palliative":0,"disability":0},"note":"抜糸〇　送迎〇"},{"id":"h_1770442635981","name":"友愛会病院","address":"〒559-0006 大阪府大阪市住之江区浜口西3丁目5-10","tel":"06-6672-3121","nearest":"南海本線　住ノ江駅","lat":34.6078447,"lng":135.4847437,"tags":["急性期","回復期"],"beds":{"acute":128,"general":0,"rehab":42,"long":0,"chiiki":0,"psy":0,"palliative":0,"disability":0},"note":""},{"id":"h_1770442489636","name":"南大阪病院","address":"〒559-0012 大阪府大阪市住之江区東加賀屋1丁目18-18","tel":"06-6685-0221","nearest":"南海本線　粉浜駅 阪堺電軌阪堺線　東粉浜駅 大阪メトロ四つ橋線　北加賀屋駅","lat":34.6190608,"lng":135.4826283,"tags":["急性期","回復期","地域包括"],"beds":{"acute":302,"general":0,"rehab":42,"long":0,"chiiki":48,"psy":0,"palliative":0,"disability":0},"note":""},{"id":"h_1770442328261","name":"南港病院","address":"〒559-0011 大阪府大阪市住之江区北加賀屋2丁目11-15","tel":"06-6685-8804","nearest":"大阪メトロ四つ橋線　北加賀屋駅","lat":34.6213359,"lng":135.4764398,"tags":["急性期","回復期","地域包括"],"beds":{"acute":36,"general":0,"rehab":28,"long":0,"chiiki":36,"psy":0,"palliative":0,"disability":0},"note":"送迎△"},{"id":"h_1770442403536","name":"咲洲病院","address":"〒559-0033 大阪府大阪市住之江区南港中2丁目1-30","tel":"06-6614-1111","nearest":"大阪メトロ南港ポートタウン線　ポートタウン東駅","lat":34.629721,"lng":135.4301853,"tags":["療養","障害"],"beds":{"acute":0,"general":0,"rehab":0,"long":135,"chiiki":0,"psy":0,"palliative":0,"disability":16},"note":""},{"id":"h_1770430080677","name":"越川病院","address":"〒545-0011 大阪府大阪市阿倍野区昭和町4丁目9-1","tel":"06-6628-8501","nearest":"阪和線(天王寺～和歌山)　南田辺駅 大阪メトロ御堂筋線　西田辺駅","lat":34.6251,"lng":135.5159396,"tags":["療養"],"beds":{"acute":0,"general":0,"rehab":0,"long":39,"chiiki":0,"psy":0,"palliative":0,"disability":0},"note":""},{"id":"h_1770429892321","name":"帝塚山リハビリテーション病院","address":"〒545-0021 大阪府大阪市阿倍野区阪南町5丁目15-5","tel":"06-6622-4331","nearest":"阪和線(天王寺～和歌山)　鶴ケ丘駅 大阪メトロ御堂筋線　西田辺駅","lat":34.6225263,"lng":135.5133837,"tags":["回復期"],"beds":{"acute":0,"general":0,"rehab":59,"long":0,"chiiki":0,"psy":0,"palliative":0,"disability":0},"note":""},{"id":"h_1770429151101","name":"相原第二病院","address":"〒545-0052 大阪府大阪市阿倍野区阿倍野筋3丁目12-10","tel":"06-6633-3661","nearest":"大阪メトロ谷町線　阿倍野駅","lat":34.6419409,"lng":135.5102331,"tags":["急性期","療養","地域包括","透析"],"beds":{"acute":72,"general":0,"rehab":0,"long":44,"chiiki":82,"psy":0,"palliative":0,"disability":0},"note":""},{"id":"h_1770429004787","name":"大阪鉄道病院","address":"〒545-0053 大阪府大阪市阿倍野区松崎町1丁目2-22","tel":"06-6628-2221","nearest":"環状線　天王寺駅 近鉄南大阪線　大阪阿部野橋駅 阪堺電軌上町線　天王寺駅前駅","lat":34.64528,"lng":135.5170555,"tags":["急性期","回復期","緩和ケア"],"beds":{"acute":244,"general":0,"rehab":40,"long":0,"chiiki":0,"psy":0,"palliative":19,"disability":0},"note":"緩和ケアはがん拠点病院からの紹介のみ"},{"id":"h_1770429338557","name":"あべの王子病院","address":"〒545-0001 大阪府大阪市阿倍野区天王寺町北2丁目31-4","tel":"06-6718-7660","nearest":"大阪環状線　寺田町駅","lat":34.6443192,"lng":135.5232641,"tags":["一般"],"beds":{"acute":0,"general":53,"rehab":0,"long":0,"chiiki":0,"psy":0,"palliative":0,"disability":0},"note":""},{"id":"h_1770429247227","name":"大阪公立大学医学部附属病院","address":"〒545-0051 大阪府大阪市阿倍野区旭町1丁目5-7","tel":"06-6645-2121","nearest":"環状線　天王寺駅 近鉄南大阪線　大阪阿部野橋駅 阪堺電軌上町線　天王寺駅前駅 大阪メトロ谷町線　阿倍野駅","lat":34.6466613,"lng":135.5088288,"tags":["急性期","精神"],"beds":{"acute":927,"general":0,"rehab":0,"long":0,"chiiki":0,"psy":38,"palliative":0,"disability":0},"note":""},{"id":"h_1770429596250","name":"帝塚山病院","address":"〒545-0037 大阪府大阪市阿倍野区帝塚山1丁目12-11","tel":"06-6651-4331","nearest":"南海高野線　帝塚山駅 阪堺電軌上町線　姫松駅","lat":34.6247663,"lng":135.5002621,"tags":["療養"],"beds":{"acute":0,"general":0,"rehab":0,"long":100,"chiiki":0,"psy":0,"palliative":0,"disability":0},"note":""},{"id":"h_1770435294655","name":"湯川胃腸病院","address":"〒543-0033 大阪府大阪市天王寺区堂ケ芝2丁目10-2","tel":"06-6771-4861","nearest":"大阪環状線　桃谷駅","lat":34.6601768,"lng":135.5263728,"tags":["緩和ケア"],"beds":{"acute":0,"general":0,"rehab":0,"long":0,"chiiki":0,"psy":0,"palliative":34,"disability":0},"note":""},{"id":"h_1770435787081","name":"四天王寺病院","address":"〒543-0052 大阪府大阪市天王寺区大道1丁目4-41","tel":"06-6779-1401","nearest":"環状線　天王寺駅 近鉄南大阪線　大阪阿部野橋駅 阪堺電軌上町線　天王寺駅前駅 大阪環状線　寺田町駅","lat":34.6527183,"lng":135.5153256,"tags":["急性期","療養"],"beds":{"acute":105,"general":0,"rehab":0,"long":45,"chiiki":0,"psy":0,"palliative":0,"disability":0},"note":""},{"id":"h_1770435654990","name":"西下胃腸病院","address":"〒543-0053 大阪府大阪市天王寺区北河堀町4-15","tel":"06-6771-2450","nearest":"環状線　天王寺駅 近鉄南大阪線　大阪阿部野橋駅 阪堺電軌上町線　天王寺駅前駅","lat":34.648618,"lng":135.5169747,"tags":["療養"],"beds":{"acute":0,"general":0,"rehab":0,"long":53,"chiiki":0,"psy":0,"palliative":0,"disability":0},"note":"介護医療院と併設"},{"id":"h_1770435975355","name":"聖バルナバ病院","address":"〒543-0032 大阪府大阪市天王寺区細工谷1丁目3-32","tel":"06-6779-1600","nearest":"近鉄難波線　大阪上本町駅","lat":34.6630065,"lng":135.5237947,"tags":["一般"],"beds":{"acute":0,"general":73,"rehab":0,"long":0,"chiiki":0,"psy":0,"palliative":0,"disability":0},"note":"小児科　産婦人科"},{"id":"h_1770435495131","name":"辻外科リハビリテーション病院","address":"〒543-0072 大阪府大阪市天王寺区生玉前町3-24","tel":"06-6771-0681","nearest":"近鉄難波線　大阪上本町駅 大阪メトロ谷町線　谷町九丁目駅","lat":34.66443599999999,"lng":135.5156756,"tags":["一般","回復期"],"beds":{"acute":0,"general":34,"rehab":37,"long":0,"chiiki":0,"psy":0,"palliative":0,"disability":0},"note":"主代医師×　加藤医師×"},{"id":"h_1770435032180","name":"大阪赤十字病院","address":"〒543-8555 大阪府大阪市天王寺区筆ケ崎町5-30","tel":"06-6774-5111","nearest":"大阪環状線　鶴橋駅 近鉄難波線　大阪上本町駅 大阪メトロ谷町線　谷町九丁目駅","lat":34.6646736,"lng":135.5255221,"tags":["急性期","精神"],"beds":{"acute":784,"general":0,"rehab":0,"long":0,"chiiki":0,"psy":42,"palliative":0,"disability":0},"note":""},{"id":"h_1770436098186","name":"早石病院","address":"〒543-0027 大阪府大阪市天王寺区筆ケ崎町2-75","tel":"06-6771-1227","nearest":"大阪環状線　鶴橋駅","lat":34.66432229999999,"lng":135.5269667,"tags":["一般","回復期"],"beds":{"acute":0,"general":53,"rehab":51,"long":0,"chiiki":0,"psy":0,"palliative":0,"disability":0},"note":"特定疾患病棟あり"},{"id":"h_1770434961178","name":"大阪けいさつ病院","address":"〒543-0042 大阪府大阪市天王寺区烏ヶ辻2-6-40","tel":"06-6771-6051","nearest":"大阪環状線　桃谷駅 近鉄難波線　大阪上本町駅","lat":34.6570771,"lng":135.5250489,"tags":["急性期"],"beds":{"acute":650,"general":0,"rehab":0,"long":0,"chiiki":0,"psy":0,"palliative":0,"disability":0},"note":""},{"id":"h_1770512091823","name":"大阪みなと中央病院","address":"〒552-0003 大阪府大阪市港区磯路1-7-1","tel":"06-6572-5721","nearest":"大阪環状線　弁天町駅","lat":34.667896,"lng":135.4621389,"tags":["急性期","地域包括"],"beds":{"acute":230,"general":0,"rehab":0,"long":0,"chiiki":45,"psy":0,"palliative":0,"disability":0},"note":""},{"id":"h_1770512167782","name":"多根第二病院","address":"〒552-0021 大阪府大阪市港区築港3丁目4-25","tel":"06-6599-1212","nearest":"大阪メトロ中央線　大阪港駅","lat":34.6552023,"lng":135.4349997,"tags":["療養"],"beds":{"acute":0,"general":0,"rehab":0,"long":216,"chiiki":0,"psy":0,"palliative":0,"disability":0},"note":""},{"id":"h_1770512236999","name":"多根脳神経リハビリテーション病院","address":"〒552-0011 大阪府大阪市港区南市岡1丁目1-45","tel":"06-6585-2743","nearest":"大阪環状線　大正駅 阪神なんば線　ドーム前駅 大阪メトロ長堀鶴見緑地線　ドーム前千代崎駅","lat":34.668372,"lng":135.4723598,"tags":["回復期"],"beds":{"acute":0,"general":0,"rehab":50,"long":0,"chiiki":0,"psy":0,"palliative":0,"disability":0},"note":""},{"id":"h_1770430705099","name":"加納総合病院","address":"〒531-0041 大阪府大阪市北区天神橋7-5-15","tel":"06-6351-5381","nearest":"大阪メトロ堺筋線/大阪メトロ谷町線/阪急千里線　天神橋筋六丁目駅","lat":34.712341,"lng":135.5114582,"tags":["急性期","回復期","療養"],"beds":{"acute":151,"general":0,"rehab":96,"long":53,"chiiki":0,"psy":0,"palliative":0,"disability":0},"note":""},{"id":"h_1770431659708","name":"行岡病院","address":"〒530-0021 大阪府大阪市北区浮田2丁目2-3","tel":"06-6371-9921","nearest":"阪急千里線　天神橋筋六丁目駅","lat":34.7101794,"lng":135.5091747,"tags":["一般","回復期","療養"],"beds":{"acute":0,"general":235,"rehab":56,"long":56,"chiiki":0,"psy":0,"palliative":0,"disability":0},"note":""},{"id":"h_1770431728238","name":"北野病院","address":"〒530-0025 大阪府大阪市北区扇町2丁目4-20","tel":"06-6312-1221","nearest":"大阪メトロ谷町線　中崎町駅 大阪環状線　天満駅 大阪メトロ堺筋線　扇町駅","lat":34.7052993,"lng":135.5068446,"tags":["急性期"],"beds":{"acute":685,"general":0,"rehab":0,"long":0,"chiiki":0,"psy":0,"palliative":0,"disability":0},"note":""},{"id":"h_1770431289232","name":"医誠会国際総合病院","address":"〒530-0052 大阪府大阪市北区南扇町4-14","tel":"0570-099-166","nearest":"大阪環状線　天満駅 大阪メトロ堺筋線　扇町駅 JR京都線　大阪駅 JR東西線　北新地駅 阪急神戸本線　大阪梅田駅 大阪メトロ谷町線　東梅田駅 大阪メトロ御堂筋線　梅田駅 大阪メトロ四つ橋線　西梅田駅","lat":34.7014085,"lng":135.508631,"tags":["急性期"],"beds":{"acute":560,"general":0,"rehab":0,"long":0,"chiiki":0,"psy":0,"palliative":0,"disability":0},"note":""},{"id":"h_1770431586489","name":"大阪府済生会中津病院","address":"〒530-0012 大阪府大阪市北区芝田2丁目10-39","tel":"06-6372-0333","nearest":"JR神戸線／大阪環状線／阪急神戸本線　大阪駅 JR東西線　北新地駅 阪急京都本線／阪急神戸本線／阪急宝塚本線／阪神本線　大阪梅田駅 大阪メトロ谷町線　東梅田駅 大阪メトロ御堂筋線　梅田駅 大阪メトロ四つ橋線　西梅田駅 大阪メトロ御堂筋線　中津駅","lat":34.7081756,"lng":135.4954782,"tags":["急性期"],"beds":{"acute":570,"general":0,"rehab":0,"long":0,"chiiki":0,"psy":0,"palliative":0,"disability":0},"note":""},{"id":"h_1770431175583","name":"大阪中央病院","address":"〒530-0001 大阪府大阪市北区梅田3-3-30","tel":"06-4795-5505","nearest":"JR京都線／JR神戸線／JR宝塚線　大阪駅 JR東西線　北新地駅 阪神本線／阪急神戸本線　大阪梅田駅 大阪メトロ谷町線　東梅田駅 大阪メトロ御堂筋線　梅田駅 大阪メトロ四つ橋線　西梅田駅","lat":34.6991175,"lng":135.4912218,"tags":["一般"],"beds":{"acute":0,"general":143,"rehab":0,"long":0,"chiiki":0,"psy":0,"palliative":0,"disability":0},"note":""},{"id":"h_1770431394535","name":"桜橋渡辺未来医療病院","address":"〒530-0005 大阪府大阪市北区中之島4丁目3-51","tel":"06-6676-8215","nearest":"大阪環状線　福島駅 JR東西線　新福島駅 京阪中之島線　渡辺橋駅 大阪メトロ四つ橋線　肥後橋駅","lat":34.6921542,"lng":135.4905039,"tags":["一般"],"beds":{"acute":0,"general":113,"rehab":0,"long":0,"chiiki":0,"psy":0,"palliative":0,"disability":0},"note":""},{"id":"h_1770431064458","name":"住友病院","address":"〒530-0005 大阪府大阪市北区中之島5丁目3-20","tel":"06-6443-1261","nearest":"京阪中之島線　中之島駅","lat":34.6903806,"lng":135.4868983,"tags":["急性期"],"beds":{"acute":499,"general":0,"rehab":0,"long":0,"chiiki":0,"psy":0,"palliative":0,"disability":0},"note":""},{"id":"h_1770431454432","name":"桜橋渡辺リハビリテーション病院","address":"〒530-0001 大阪府大阪市北区梅田２丁目４−３２","tel":"06-6341-8651","nearest":"四つ橋線「西梅田駅」北改札口より徒歩すぐ 御堂筋線「梅田駅」南改札口より徒歩約5分 谷町線「東梅田駅」北西改札口より徒歩約6分 JR「大阪駅」桜橋出口より徒歩約2分 東西線「北新地駅」西改札口より徒歩約2分","lat":34.6990621,"lng":135.4945189,"tags":["回復期"],"beds":{"acute":0,"general":0,"rehab":58,"long":0,"chiiki":0,"psy":0,"palliative":0,"disability":0},"note":""},{"id":"h_1770512684896","name":"JCHO大阪病院","address":"〒553-0003 大阪府大阪市福島区福島4-2-78","tel":"06-6441-5451","nearest":"大阪環状線　福島駅 JR東西線　新福島駅 京阪中之島線　中之島駅","lat":34.692355,"lng":135.4820701,"tags":["急性期"],"beds":{"acute":505,"general":0,"rehab":0,"long":0,"chiiki":0,"psy":0,"palliative":0,"disability":0},"note":""},{"id":"h_1770512767664","name":"えびえ記念病院","address":"〒553-0001 大阪府大阪市福島区海老江2-1-36","tel":"06-6458-7171","nearest":"JR東西線　海老江駅 阪神本線　野田駅 大阪メトロ千日前線　野田阪神駅 大阪環状線　野田駅 大阪メトロ千日前線　玉川駅","lat":34.6955945,"lng":135.4745393,"tags":["一般","回復期","地域包括"],"beds":{"acute":0,"general":67,"rehab":49,"long":0,"chiiki":83,"psy":0,"palliative":0,"disability":0},"note":""},{"id":"h_1770512844662","name":"大阪整形外科病院","address":"〒553-0003 大阪府大阪市福島区大開四丁目3番61号","tel":"06-6463-1111","nearest":"大阪環状線　西九条駅 阪神なんば線　千鳥橋駅 JR東西線　海老江駅 阪神本線　野田駅 大阪メトロ千日前線　野田阪神駅","lat":34.6872589,"lng":135.4650296,"tags":["一般"],"beds":{"acute":0,"general":98,"rehab":0,"long":0,"chiiki":0,"psy":0,"palliative":0,"disability":0},"note":""},{"id":"h_1770512908023","name":"首藤病院","address":"〒553-0005 大阪府大阪市福島区野田5丁目18-16","tel":"06-6461-1537","nearest":"大阪環状線　野田駅 大阪メトロ千日前線　玉川駅 JR東西線　海老江駅 阪神本線　野田駅 大阪メトロ千日前線　野田阪神駅","lat":34.6860529,"lng":135.4717467,"tags":["療養"],"beds":{"acute":0,"general":0,"rehab":0,"long":86,"chiiki":0,"psy":0,"palliative":0,"disability":0},"note":""},{"id":"h_1770513049024","name":"フジタ病院","address":"〒553-0006 大阪府大阪市福島区吉野2丁目10-11","tel":"06-6441-1181","nearest":"大阪環状線　野田駅 大阪メトロ千日前線　玉川駅","lat":34.6919809,"lng":135.4753333,"tags":["一般","療養"],"beds":{"acute":0,"general":33,"rehab":0,"long":32,"chiiki":0,"psy":0,"palliative":0,"disability":0},"note":"介護医療院併設"},{"id":"h_1770513112831","name":"関西電力病院","address":"〒553-0003 大阪府大阪市福島区福島2丁目1-7","tel":"06-6458-5821","nearest":"大阪環状線　福島駅 JR東西線　新福島駅 京阪中之島線　中之島駅","lat":34.6930543,"lng":135.4873719,"tags":["急性期"],"beds":{"acute":400,"general":0,"rehab":0,"long":0,"chiiki":0,"psy":0,"palliative":0,"disability":0},"note":""},{"id":"h_1770513367517","name":"大阪市立総合医療センター","address":"〒534-0021 大阪府大阪市都島区都島本通2丁目13-22","tel":"06-6929-1221","nearest":"大阪メトロ谷町線　都島駅","lat":34.7070574,"lng":135.5241851,"tags":["急性期","緩和ケア","精神"],"beds":{"acute":741,"general":0,"rehab":0,"long":0,"chiiki":0,"psy":55,"palliative":24,"disability":0},"note":"緩和ケアは初診不可"},{"id":"h_1770513447213","name":"分野病院","address":"〒534-0024 大阪府大阪市都島区東野田町5丁目3-33","tel":"06-6351-0002","nearest":"学研都市線　京橋駅","lat":34.6992818,"lng":135.5354633,"tags":["一般","療養"],"beds":{"acute":0,"general":52,"rehab":0,"long":48,"chiiki":0,"psy":0,"palliative":0,"disability":0},"note":""},{"id":"h_1770513526680","name":"神原病院","address":"〒534-0011 大阪府大阪市都島区高倉町1丁目10-5","tel":"06-6923-3351","nearest":"大阪メトロ谷町線　都島駅","lat":34.713739,"lng":135.5312775,"tags":["一般","透析"],"beds":{"acute":0,"general":63,"rehab":0,"long":0,"chiiki":0,"psy":0,"palliative":0,"disability":0},"note":""},{"id":"h_1770513607404","name":"明生記念病院","address":"〒534-0024 大阪府大阪市都島区東野田町2丁目8-12","tel":"06-6357-5791","nearest":"学研都市線　京橋駅","lat":34.6980197,"lng":135.5307126,"tags":["一般","透析"],"beds":{"acute":0,"general":38,"rehab":0,"long":0,"chiiki":0,"psy":0,"palliative":0,"disability":0},"note":"透析・腎臓疾患専門"},{"id":"h_1770514236139","name":"協和病院","address":"〒534-0024 大阪府大阪市都島区東野田町5丁目2-25","tel":"06-6357-1131","nearest":"学研都市線　京橋駅","lat":34.6990681,"lng":135.5339856,"tags":["一般"],"beds":{"acute":0,"general":128,"rehab":0,"long":0,"chiiki":0,"psy":0,"palliative":0,"disability":0},"note":""},{"id":"h_1770514707618","name":"聖和病院","address":"〒534-0027 大阪府大阪市都島区中野町1丁目7-32","tel":"06-6352-2525","nearest":"学研都市線　京橋駅 大阪環状線　桜ノ宮駅 JR東西線　大阪城北詰駅","lat":34.698858,"lng":135.5252665,"tags":["一般","回復期","療養","地域包括"],"beds":{"acute":0,"general":28,"rehab":41,"long":32,"chiiki":21,"psy":0,"palliative":0,"disability":0},"note":""},{"id":"h_1770515414080","name":"明生病院","address":"〒534-0024 大阪府大阪市都島区東野田町2丁目4-8","tel":"06-6353-3121","nearest":"学研都市線　京橋駅","lat":34.6978629,"lng":135.5322842,"tags":["一般"],"beds":{"acute":0,"general":161,"rehab":0,"long":0,"chiiki":0,"psy":0,"palliative":0,"disability":0},"note":""},{"id":"h_1770515558582","name":"ツヂ病院","address":"〒534-0014 大阪府大阪市都島区都島北通1丁目22-6","tel":"06-6922-1236","nearest":"大阪メトロ谷町線　都島駅","lat":34.711882,"lng":135.5285187,"tags":["療養","緩和ケア"],"beds":{"acute":0,"general":0,"rehab":0,"long":84,"chiiki":0,"psy":0,"palliative":15,"disability":0},"note":""},{"id":"h_1770515888900","name":"東朋病院","address":"〒534-0023 大阪府大阪市都島区都島南通2丁目8-9","tel":"06-6923-6226","nearest":"学研都市線　京橋駅 大阪メトロ谷町線　都島駅","lat":34.7026778,"lng":135.5316928,"tags":["一般","障害"],"beds":{"acute":0,"general":100,"rehab":0,"long":0,"chiiki":0,"psy":0,"palliative":0,"disability":0},"note":""},{"id":"h_1770516506075","name":"大阪市立十三市民病院","address":"〒532-0034 大阪府大阪市淀川区野中北2丁目12-27","tel":"06-6150-8000","nearest":"阪急神戸本線　神崎川駅","lat":34.7278622,"lng":135.4776042,"tags":["急性期"],"beds":{"acute":224,"general":0,"rehab":0,"long":0,"chiiki":0,"psy":0,"palliative":0,"disability":0},"note":"結核病棟あり※疑いは受け入れ不可"},{"id":"h_1770516685215","name":"大阪回生病院","address":"〒532-0003 大阪府大阪市淀川区宮原1-6-10","tel":"06-6393-6234","nearest":"大阪メトロ御堂筋線　新大阪駅","lat":34.73538480000001,"lng":135.4991555,"tags":["急性期","地域包括"],"beds":{"acute":254,"general":0,"rehab":0,"long":0,"chiiki":46,"psy":0,"palliative":0,"disability":0},"note":""},{"id":"h_1770517468008","name":"貴生病院","address":"〒532-0006 大阪府大阪市淀川区西三国1丁目18-4","tel":"06-6392-0007","nearest":"阪急宝塚本線　三国駅 大阪メトロ御堂筋線　東三国駅","lat":34.7418801,"lng":135.4926058,"tags":["一般","療養","透析"],"beds":{"acute":0,"general":60,"rehab":0,"long":55,"chiiki":0,"psy":0,"palliative":0,"disability":0},"note":""},{"id":"h_1770517741500","name":"北大阪病院","address":"〒532-0004 大阪府大阪市淀川区西宮原2丁目7-17","tel":"06-6395-1601","nearest":"R京都線　新大阪駅 阪急宝塚本線　三国駅","lat":34.7341124,"lng":135.4903421,"tags":["一般","回復期"],"beds":{"acute":0,"general":39,"rehab":38,"long":0,"chiiki":0,"psy":0,"palliative":0,"disability":0},"note":""},{"id":"h_1770517968147","name":"大阪治験病院","address":"〒532-0003 大阪府大阪市淀川区宮原4丁目1-29","tel":"06-6395-9000","nearest":"JR京都線　新大阪駅","lat":34.7351804,"lng":135.496917,"tags":["一般"],"beds":{"acute":0,"general":53,"rehab":0,"long":0,"chiiki":0,"psy":0,"palliative":0,"disability":0},"note":"治験専門"},{"id":"h_1770518462990","name":"十三病院","address":"〒532-0013 大阪府大阪市淀川区木川西3丁目4-15","tel":"06-6303-8731","nearest":"阪急神戸本線　十三駅","lat":34.725961,"lng":135.4863318,"tags":["療養"],"beds":{"acute":0,"general":0,"rehab":0,"long":108,"chiiki":0,"psy":0,"palliative":0,"disability":0},"note":""},{"id":"h_1770518728093","name":"革島病院","address":"〒532-0006 大阪府大阪市淀川区西三国2丁目7-1","tel":"06-6391-1431","nearest":"阪急宝塚本線　三国駅 大阪メトロ御堂筋線　東三国駅","lat":34.73924969999999,"lng":135.4900512,"tags":["一般","障害"],"beds":{"acute":0,"general":51,"rehab":0,"long":0,"chiiki":0,"psy":0,"palliative":0,"disability":0},"note":""},{"id":"h_1770518869341","name":"東淀川病院","address":"〒532-0005 大阪府大阪市淀川区三国本町3丁目18-3","tel":"06-6394-0551","nearest":"阪急宝塚本線　三国駅","lat":34.736618,"lng":135.4870823,"tags":["一般","療養"],"beds":{"acute":0,"general":39,"rehab":0,"long":52,"chiiki":0,"psy":0,"palliative":0,"disability":0},"note":""},{"id":"h_1770519500855","name":"淀川キリスト教病院","address":"〒533-0024 大阪府大阪市東淀川区柴島1-7-50","tel":"06-6322-2250","nearest":"阪急京都本線　崇禅寺駅 阪急千里線　柴島駅","lat":34.7296902,"lng":135.5117663,"tags":["急性期"],"beds":{"acute":581,"general":0,"rehab":0,"long":0,"chiiki":0,"psy":0,"palliative":0,"disability":0},"note":""},{"id":"h_1770520156099","name":"淀川平成病院","address":"〒533-0033 大阪府大阪市東淀川区東中島6丁目9-3","tel":"06-6326-7100","nearest":"阪急京都本線　崇禅寺駅 阪急京都本線　淡路駅 おおさか東線　JR淡路駅","lat":34.7344791,"lng":135.5125825,"tags":["回復期"],"beds":{"acute":0,"general":0,"rehab":76,"long":0,"chiiki":0,"psy":0,"palliative":0,"disability":0},"note":""},{"id":"h_1770520323787","name":"成仁会病院","address":"〒533-0013 大阪府大阪市東淀川区豊里7丁目19-27","tel":"06-6327-7765","nearest":"大阪メトロ今里筋線　だいどう豊里駅","lat":34.7451392,"lng":135.5424007,"tags":["急性期","障害"],"beds":{"acute":33,"general":0,"rehab":0,"long":0,"chiiki":0,"psy":0,"palliative":0,"disability":27},"note":""},{"id":"h_1770520433421","name":"淀川若葉会病院","address":"〒533-0014 大阪府大阪市東淀川区豊新5丁目15-25","tel":"06-6327-0871","nearest":"阪急京都本線　上新庄駅","lat":34.7468852,"lng":135.5355607,"tags":["一般","療養"],"beds":{"acute":0,"general":112,"rehab":0,"long":52,"chiiki":0,"psy":0,"palliative":0,"disability":0},"note":""},{"id":"h_1770520758925","name":"大阪旭こども病院","address":"〒535-0022 大阪府大阪市旭区新森4丁目13-17","tel":"06-6952-4771","nearest":"京阪本線　森小路駅 大阪メトロ今里筋線　新森古市駅","lat":34.7164252,"lng":135.5596635,"tags":["一般"],"beds":{"acute":0,"general":79,"rehab":0,"long":0,"chiiki":0,"psy":0,"palliative":0,"disability":0},"note":""},{"id":"h_1770520825527","name":"牧病院","address":"〒535-0022 大阪府大阪市旭区新森7丁目10-28","tel":"06-6953-0120","nearest":"京阪電車　千林駅 大阪メトロ今里筋線　清水駅","lat":34.7196799,"lng":135.5626137,"tags":["地域包括"],"beds":{"acute":0,"general":0,"rehab":0,"long":0,"chiiki":75,"psy":0,"palliative":0,"disability":0},"note":""},{"id":"h_1770520928727","name":"福島病院","address":"〒535-0012 大阪府大阪市旭区千林2丁目4-22","tel":"06-6953-2940","nearest":"京阪本線　千林駅 大阪メトロ谷町線　千林大宮駅","lat":34.7248379,"lng":135.5506247,"tags":["一般","緩和ケア"],"beds":{"acute":0,"general":97,"rehab":0,"long":0,"chiiki":0,"psy":0,"palliative":0,"disability":0},"note":"地域包括ケア病棟あり"},{"id":"h_1770520991207","name":"藤立病院","address":"〒535-0002 大阪府大阪市旭区大宮5丁目4-24","tel":"06-6955-1221","nearest":"大阪メトロ谷町線／大阪メトロ今里筋線　太子橋今市駅 京阪本線　滝井駅","lat":34.7295646,"lng":135.5501486,"tags":["一般","地域包括"],"beds":{"acute":0,"general":52,"rehab":0,"long":0,"chiiki":45,"psy":0,"palliative":0,"disability":0},"note":""},{"id":"h_1770521072159","name":"明徳病院","address":"〒535-0004 大阪府大阪市旭区生江1丁目3-26","tel":"06-6921-5131","nearest":"大阪メトロ谷町線　千林大宮駅 大阪メトロ谷町線　都島駅","lat":34.7227483,"lng":135.5356218,"tags":["療養"],"beds":{"acute":0,"general":0,"rehab":0,"long":66,"chiiki":0,"psy":0,"palliative":0,"disability":0},"note":""},{"id":"h_1770521145176","name":"真心会病院","address":"〒535-0022 大阪府大阪市旭区新森2丁目24-20","tel":"06-6953-1346","nearest":"京阪本線　森小路駅 大阪メトロ今里筋線　新森古市駅","lat":34.7154793,"lng":135.5557892,"tags":["一般","療養"],"beds":{"acute":0,"general":33,"rehab":0,"long":42,"chiiki":0,"psy":0,"palliative":0,"disability":0},"note":""},{"id":"h_1770521233668","name":"藍の都脳神経外科病院","address":"〒538-0044 大阪府大阪市鶴見区放出東2-21-16","tel":"06-6965-1800","nearest":"学研都市線　放出駅","lat":34.6907031,"lng":135.5655642,"tags":["急性期"],"beds":{"acute":80,"general":0,"rehab":0,"long":0,"chiiki":0,"psy":0,"palliative":0,"disability":0},"note":""},{"id":"h_1770521307459","name":"和田病院","address":"〒538-0052 大阪府大阪市鶴見区横堤3丁目10-18","tel":"06-6911-0003","nearest":"大阪メトロ長堀鶴見緑地線　横堤駅","lat":34.7033002,"lng":135.5734521,"tags":["一般","療養","地域包括"],"beds":{"acute":0,"general":31,"rehab":0,"long":20,"chiiki":15,"psy":0,"palliative":0,"disability":0},"note":""},{"id":"h_1770521375167","name":"コープおおさか病院","address":"〒538-0053 大阪府大阪市鶴見区鶴見3丁目6-22","tel":"0570-06-1100","nearest":"大阪メトロ長堀鶴見緑地線　今福鶴見駅","lat":34.7022141,"lng":135.5630132,"tags":["急性期","回復期","地域包括"],"beds":{"acute":58,"general":0,"rehab":54,"long":0,"chiiki":54,"psy":0,"palliative":0,"disability":0},"note":""},{"id":"h_1770521433526","name":"城東病院","address":"〒538-0044 大阪府大阪市鶴見区放出東2丁目11-22","tel":"06-6961-2994","nearest":"学研都市線　放出駅","lat":34.6927143,"lng":135.561421,"tags":["一般"],"beds":{"acute":0,"general":46,"rehab":0,"long":0,"chiiki":0,"psy":0,"palliative":0,"disability":0},"note":""},{"id":"h_1770521509131","name":"新協和病院","address":"〒538-0043 大阪府大阪市鶴見区今津南1丁目5-8","tel":"06-6969-3500","nearest":"学研都市線　放出駅","lat":34.689277,"lng":135.5672363,"tags":["一般","療養","障害"],"beds":{"acute":0,"general":45,"rehab":0,"long":51,"chiiki":0,"psy":0,"palliative":0,"disability":52},"note":""},{"id":"h_1770521576328","name":"三和病院","address":"〒538-0032 大阪府大阪市鶴見区安田1丁目8-3","tel":"06-6912-6500","nearest":"大阪メトロ長堀鶴見緑地線　横堤駅","lat":34.70517299999999,"lng":135.5884649,"tags":["一般"],"beds":{"acute":0,"general":53,"rehab":0,"long":0,"chiiki":0,"psy":0,"palliative":0,"disability":0},"note":""},{"id":"h_1770521650337","name":"本田病院","address":"〒538-0053 大阪府大阪市鶴見区鶴見4丁目1-30","tel":"06-6939-6251","nearest":"大阪メトロ長堀鶴見緑地線　今福鶴見駅","lat":34.7024032,"lng":135.5606805,"tags":["一般","回復期","療養"],"beds":{"acute":0,"general":40,"rehab":30,"long":30,"chiiki":0,"psy":0,"palliative":0,"disability":0},"note":""},{"id":"h_1770521820926","name":"大阪府済生会野江病院","address":"〒536-0001 大阪府大阪市城東区古市1丁目3-25","tel":"06-6932-0401","nearest":"大阪メトロ長堀鶴見緑地線　今福鶴見駅","lat":34.7066578,"lng":135.5550541,"tags":["急性期"],"beds":{"acute":400,"general":0,"rehab":0,"long":0,"chiiki":0,"psy":0,"palliative":0,"disability":0},"note":""},{"id":"h_1770521887186","name":"おおさかグローバル整形外科病院","address":"〒536-0008 大阪府大阪市城東区関目6丁目15-30","tel":"06-6786-6200","nearest":"大阪メトロ谷町線　関目高殿駅 大阪メトロ今里筋線　新森古市駅","lat":34.7149721,"lng":135.5539661,"tags":["一般"],"beds":{"acute":0,"general":80,"rehab":0,"long":0,"chiiki":0,"psy":0,"palliative":0,"disability":0},"note":""},{"id":"h_1770522004726","name":"森之宮病院","address":"〒536-0025 大阪府大阪市城東区森之宮2丁目1-88","tel":"06-6969-0111","nearest":"JR大阪環状線、大阪メトロ中央線、長堀鶴見緑地線　森ノ宮駅","lat":34.6829814,"lng":135.5386843,"tags":["一般","回復期","地域包括"],"beds":{"acute":159,"general":0,"rehab":151,"long":0,"chiiki":45,"psy":0,"palliative":0,"disability":0},"note":""},{"id":"h_1770522075424","name":"関目病院","address":"〒536-0008 大阪府大阪市城東区関目2丁目13-13","tel":"06-6931-3211","nearest":"京阪本線　野江駅 おおさか東線　JR野江駅 大阪メトロ長堀鶴見緑地線　蒲生四丁目駅","lat":34.7061569,"lng":135.552212,"tags":["一般"],"beds":{"acute":0,"general":48,"rehab":0,"long":0,"chiiki":0,"psy":0,"palliative":0,"disability":0},"note":""},{"id":"h_1770522367343","name":"ボバース記念病院","address":"〒536-0023 大阪府大阪市城東区東中浜1丁目6-5","tel":"06-6962-3131","nearest":"学研都市線　鴫野駅 大阪メトロ中央線　緑橋駅","lat":34.6872478,"lng":135.5465551,"tags":["一般"],"beds":{"acute":0,"general":98,"rehab":0,"long":0,"chiiki":0,"psy":0,"palliative":0,"disability":0},"note":"脳疾患系リハビリ対応？"},{"id":"h_1770522454381","name":"すみれ病院","address":"〒536-0001 大阪府大阪市城東区古市1丁目20-85","tel":"06-6934-5611","nearest":"大阪メトロ長堀鶴見緑地線　今福鶴見駅 大阪メトロ今里筋線　新森古市駅 京阪本線　関目駅 大阪メトロ今里筋線　関目成育駅","lat":34.7089431,"lng":135.557868,"tags":["一般","地域包括"],"beds":{"acute":0,"general":22,"rehab":0,"long":0,"chiiki":10,"psy":0,"palliative":0,"disability":0},"note":""},{"id":"h_1770522588980","name":"東大阪病院","address":"〒536-0005 大阪府大阪市城東区中央3丁目4-32","tel":"06-6939-1121","nearest":"大阪メトロ長堀鶴見緑地線　蒲生四丁目駅","lat":34.701922,"lng":135.545912,"tags":["一般","回復期","緩和ケア","障害"],"beds":{"acute":0,"general":112,"rehab":60,"long":0,"chiiki":0,"psy":0,"palliative":23,"disability":60},"note":""},{"id":"h_1770522785856","name":"サトウ病院","address":"〒536-0023 大阪府大阪市城東区東中浜1丁目2-23","tel":"06-6961-3191","nearest":"学研都市線　鴫野駅","lat":34.6876533,"lng":135.5457459,"tags":["急性期","療養"],"beds":{"acute":34,"general":0,"rehab":0,"long":36,"chiiki":0,"psy":0,"palliative":0,"disability":0},"note":""},{"id":"h_1770524468196","name":"大阪暁明館病院","address":"〒554-0012 大阪府大阪市此花区西九条5丁目4-8","tel":"06-6462-0261","nearest":"大阪環状線　西九条駅","lat":34.6843497,"lng":135.4650177,"tags":["急性期","回復期","療養","地域包括","緩和ケア"],"beds":{"acute":179,"general":0,"rehab":102,"long":90,"chiiki":46,"psy":0,"palliative":21,"disability":0},"note":""},{"id":"h_1770524523406","name":"大津病院","address":"〒554-0051 大阪府大阪市此花区酉島2丁目1-15","tel":"06-6463-5151","nearest":"阪神なんば線　伝法駅","lat":34.6860189,"lng":135.44531,"tags":["療養"],"beds":{"acute":0,"general":0,"rehab":0,"long":60,"chiiki":0,"psy":0,"palliative":0,"disability":0},"note":""},{"id":"h_1770524580261","name":"大場内科病院","address":"〒554-0014 大阪府大阪市此花区四貫島1丁目1-9","tel":"06-6463-1088","nearest":"阪神なんば線　千鳥橋駅","lat":34.6853169,"lng":135.4575097,"tags":["一般"],"beds":{"acute":0,"general":57,"rehab":0,"long":0,"chiiki":0,"psy":0,"palliative":0,"disability":0},"note":""},{"id":"h_1770524683804","name":"浜田病院","address":"〒547-0024 大阪府大阪市平野区瓜破1丁目6-9","tel":"06-6708-7200","nearest":"大阪メトロ谷町線　喜連瓜破駅","lat":34.6061686,"lng":135.5511669,"tags":["一般"],"beds":{"acute":0,"general":48,"rehab":0,"long":0,"chiiki":0,"psy":0,"palliative":0,"disability":0},"note":"産婦人科"},{"id":"h_1770524792339","name":"長吉総合病院","address":"〒547-0016 大阪府大阪市平野区長吉長原1丁目2-34","tel":"06-6709-0301","nearest":"大阪メトロ谷町線　出戸駅","lat":34.6064642,"lng":135.5675486,"tags":["一般","療養","地域包括"],"beds":{"acute":0,"general":172,"rehab":0,"long":87,"chiiki":50,"psy":0,"palliative":0,"disability":0},"note":""},{"id":"h_1770524874920","name":"高遼会病院","address":"〒547-0044 大阪府大阪市平野区平野本町4-15-6","tel":"06-6791-0928","nearest":"地下鉄谷町線　平野駅 JR関西本線　平野駅","lat":34.6229281,"lng":135.5559117,"tags":["一般"],"beds":{"acute":0,"general":33,"rehab":0,"long":0,"chiiki":0,"psy":0,"palliative":0,"disability":0},"note":"人工関節センター"},{"id":"h_1770524973038","name":"松井記念病院","address":"〒547-0005 大阪府大阪市平野区加美西2丁目3-5","tel":"06-6794-1111","nearest":"大和路線　加美駅 おおさか東線　新加美駅","lat":34.6249683,"lng":135.5623684,"tags":["療養"],"beds":{"acute":0,"general":0,"rehab":0,"long":80,"chiiki":0,"psy":0,"palliative":0,"disability":0},"note":""},{"id":"h_1770525059665","name":"三好病院","address":"〒547-0032 大阪府大阪市平野区流町4丁目10-10","tel":"06-6709-3455","nearest":"大和路線　平野駅 大阪メトロ谷町線　平野駅","lat":34.6182131,"lng":135.5543244,"tags":["一般","療養","地域包括"],"beds":{"acute":0,"general":21,"rehab":0,"long":36,"chiiki":12,"psy":0,"palliative":0,"disability":0},"note":""},{"id":"h_1770525142418","name":"正和病院","address":"〒547-0022 大阪府大阪市平野区瓜破東1丁目5-5","tel":"06-6709-8886","nearest":"大阪メトロ谷町線　喜連瓜破駅","lat":34.6081381,"lng":135.55687,"tags":["一般","療養","地域包括"],"beds":{"acute":0,"general":85,"rehab":0,"long":36,"chiiki":44,"psy":0,"palliative":0,"disability":0},"note":""},{"id":"h_1770525222520","name":"平野東図書館前病院","address":"〒547-0043 大阪府大阪市平野区平野東1丁目8-9","tel":"06-6791-5000","nearest":"大和路線　加美駅 おおさか東線　新加美駅 大和路線　平野駅","lat":34.6243925,"lng":135.5596433,"tags":["回復期"],"beds":{"acute":0,"general":0,"rehab":51,"long":0,"chiiki":0,"psy":0,"palliative":0,"disability":0},"note":""},{"id":"h_1770525361579","name":"共立病院","address":"〒547-0011 大阪府大阪市平野区長吉出戸7丁目12-23","tel":"06-6799-0285","nearest":"大阪メトロ谷町線　出戸駅","lat":34.6095732,"lng":135.5768753,"tags":["一般","療養","地域包括","障害"],"beds":{"acute":0,"general":49,"rehab":0,"long":55,"chiiki":19,"psy":0,"palliative":0,"disability":76},"note":""},{"id":"h_1770525427537","name":"平野若葉会病院","address":"〒547-0024 大阪府大阪市平野区瓜破2丁目1-19","tel":"06-6799-1010","nearest":"大阪メトロ谷町線　喜連瓜破駅","lat":34.608869,"lng":135.5523401,"tags":["急性期","障害"],"beds":{"acute":36,"general":0,"rehab":0,"long":0,"chiiki":0,"psy":0,"palliative":0,"disability":136},"note":""},{"id":"h_1770525536787","name":"緑風会病院","address":"〒547-0034 大阪府大阪市平野区背戸口1丁目18-13","tel":"06-6705-1021","nearest":"大和路線　平野駅 大阪メトロ谷町線　平野駅","lat":34.6216059,"lng":135.5433648,"tags":["急性期","地域包括"],"beds":{"acute":88,"general":0,"rehab":0,"long":0,"chiiki":37,"psy":0,"palliative":0,"disability":0},"note":"特殊疾患病棟あり"},{"id":"h_1770527202402","name":"東住吉森本リハビリテーション病院","address":"〒546-0022 大阪府大阪市東住吉区住道矢田4丁目21-10","tel":"06-6701-2121","nearest":"近鉄南大阪線　矢田駅","lat":34.6012485,"lng":135.5397143,"tags":["回復期"],"beds":{"acute":0,"general":0,"rehab":52,"long":0,"chiiki":0,"psy":0,"palliative":0,"disability":0},"note":""},{"id":"h_1770527265501","name":"おおさかグローバル整形外科病院","address":"〒536-0008 大阪府大阪市城東区関目6丁目15-30","tel":"06-6786-6200","nearest":"大阪メトロ谷町線　関目高殿駅 大阪メトロ今里筋線　新森古市駅","lat":34.7149721,"lng":135.5539661,"tags":["一般"],"beds":{"acute":0,"general":80,"rehab":0,"long":0,"chiiki":0,"psy":0,"palliative":0,"disability":0},"note":""},{"id":"h_1770527371189","name":"東住吉森本病院","address":"〒546-0014 大阪府大阪市東住吉区鷹合3丁目2-66","tel":"06-6606-0010","nearest":"阪和線(天王寺～和歌山)　長居駅 近鉄南大阪線　針中野駅 近鉄南大阪線　矢田駅","lat":34.6109803,"lng":135.5274088,"tags":["急性期","緩和ケア"],"beds":{"acute":329,"general":0,"rehab":0,"long":0,"chiiki":0,"psy":0,"palliative":0,"disability":0},"note":""},{"id":"h_1770527419979","name":"南大阪小児リハビリテーション病院","address":"〒546-0035 大阪府大阪市東住吉区山坂5丁目11-21","tel":"06-6699-8731","nearest":"阪和線(天王寺～和歌山)　鶴ケ丘駅 大阪メトロ御堂筋線　西田辺駅","lat":34.6167048,"lng":135.5200361,"tags":["一般"],"beds":{"acute":0,"general":120,"rehab":0,"long":0,"chiiki":0,"psy":0,"palliative":0,"disability":0},"note":""},{"id":"h_1770527509944","name":"東和病院","address":"〒546-0031 大阪府大阪市東住吉区田辺4丁目13-15","tel":"06-6621-2211","nearest":"阪和線(天王寺～和歌山)　南田辺駅 大阪メトロ谷町線　田辺駅","lat":34.6232191,"lng":135.5262854,"tags":["一般","回復期","地域包括"],"beds":{"acute":64,"general":0,"rehab":50,"long":0,"chiiki":41,"psy":0,"palliative":0,"disability":0},"note":""},{"id":"h_1770527624961","name":"白鷺病院","address":"〒546-0002 大阪府大阪市東住吉区杭全7丁目11-23","tel":"06-6714-1661","nearest":"大和路線　東部市場前駅","lat":34.6322737,"lng":135.5387211,"tags":["一般","療養","透析"],"beds":{"acute":0,"general":60,"rehab":0,"long":32,"chiiki":0,"psy":0,"palliative":0,"disability":0},"note":""},{"id":"h_1770527703781","name":"西中病院","address":"〒546-0013 大阪府大阪市東住吉区湯里5丁目9-6","tel":"06-6700-5200","nearest":"近鉄南大阪線　矢田駅","lat":34.6097568,"lng":135.5372524,"tags":["療養"],"beds":{"acute":0,"general":0,"rehab":0,"long":26,"chiiki":0,"psy":0,"palliative":0,"disability":0},"note":""},{"id":"h_1770527774802","name":"淀井病院","address":"〒546-0041 大阪府大阪市東住吉区桑津2丁目8-8","tel":"06-6719-0771","nearest":"近鉄南大阪線　河堀口駅","lat":34.6407056,"lng":135.5292175,"tags":["一般","療養","透析"],"beds":{"acute":0,"general":47,"rehab":0,"long":49,"chiiki":0,"psy":0,"palliative":0,"disability":0},"note":""},{"id":"h_1770528046415","name":"大阪府済生会富田林病院","address":"〒584-0082 大阪府富田林市向陽台1-3-36","tel":"0721-29-1121","nearest":"近鉄長野線　富田林駅 近鉄長野線　富田林西口駅 南海高野線　金剛駅","lat":34.5036759,"lng":135.5831116,"tags":["急性期","地域包括"],"beds":{"acute":260,"general":0,"rehab":0,"long":0,"chiiki":0,"psy":0,"palliative":0,"disability":0},"note":"地域包括ケア病棟あり"},{"id":"h_1770528107480","name":"金剛病院","address":"〒584-0031 大阪府富田林市寿町1丁目6-10","tel":"0721-25-3113","nearest":"近鉄長野線　富田林西口駅","lat":34.4977108,"lng":135.5939469,"tags":["療養","地域包括"],"beds":{"acute":0,"general":0,"rehab":0,"long":30,"chiiki":30,"psy":0,"palliative":0,"disability":0},"note":""},{"id":"h_1770528224463","name":"結のぞみ病院","address":"〒584-0055 大阪府富田林市伏見堂95","tel":"0721-34-1101","nearest":"近鉄『汐ノ宮駅』南海・近鉄「河内長野駅」、近鉄「汐ノ宮駅」、近鉄「富田林駅」から巡回バス","lat":34.4719972,"lng":135.5804677,"tags":["療養","精神"],"beds":{"acute":0,"general":0,"rehab":0,"long":54,"chiiki":0,"psy":340,"palliative":0,"disability":0},"note":""},{"id":"h_1770528311302","name":"ＰＬ病院","address":"〒584-0091 大阪府富田林市新堂2204","tel":"0721-24-3100","nearest":"近鉄長野線　富田林駅 南海高野線　金剛駅","lat":34.5103225,"lng":135.5885169,"tags":["急性期","療養","地域包括"],"beds":{"acute":285,"general":0,"rehab":0,"long":47,"chiiki":38,"psy":0,"palliative":0,"disability":0},"note":""},{"id":"h_1770528370056","name":"富田林田中病院","address":"〒584-0006 大阪府富田林市旭ケ丘町958","tel":"0721-25-5510","nearest":"近鉄長野線　喜志駅","lat":34.521833,"lng":135.6048439,"tags":["療養"],"beds":{"acute":0,"general":0,"rehab":0,"long":30,"chiiki":0,"psy":0,"palliative":0,"disability":0},"note":""},{"id":"h_1770528705813","name":"老寿やすらぎ病院","address":"〒586-0094 大阪府河内長野市小山田町379-5","tel":"0721-55-0200","nearest":"南海高野線　千代田駅 近鉄長野線　河内長野駅","lat":34.4523084,"lng":135.5539909,"tags":["療養"],"beds":{"acute":0,"general":0,"rehab":0,"long":281,"chiiki":0,"psy":0,"palliative":0,"disability":0},"note":""},{"id":"h_1770528799967","name":"南河内おか病院","address":"〒586-0008 大阪府河内長野市木戸東町1-1","tel":"0721-55-1221","nearest":"南海高野線　千代田駅 近鉄長野線　汐ノ宮駅","lat":34.4705709,"lng":135.5731008,"tags":["一般"],"beds":{"acute":0,"general":99,"rehab":0,"long":0,"chiiki":0,"psy":0,"palliative":0,"disability":0},"note":""},{"id":"h_1770528863150","name":"寺元記念病院","address":"〒586-0017 大阪府河内長野市古野町4-11","tel":"0721-50-1111","nearest":"近鉄長野線　河内長野駅","lat":34.4558942,"lng":135.5696,"tags":["急性期"],"beds":{"acute":160,"general":0,"rehab":0,"long":0,"chiiki":0,"psy":0,"palliative":0,"disability":0},"note":""},{"id":"h_1770528933690","name":"大阪南医療センター","address":"〒586-0008 大阪府河内長野市木戸東町2-1","tel":"0721-53-8521","nearest":"南海高野線　千代田駅","lat":34.4725384,"lng":135.5716726,"tags":["急性期","緩和ケア"],"beds":{"acute":356,"general":0,"rehab":0,"long":0,"chiiki":0,"psy":0,"palliative":18,"disability":0},"note":""},{"id":"h_1770529009943","name":"てらもと医療リハビリ病院","address":"〒586-0033 大阪府河内長野市喜多町14-1","tel":"0721-63-0101","nearest":"近鉄長野線　河内長野駅","lat":34.4487021,"lng":135.5701549,"tags":["療養"],"beds":{"acute":0,"general":0,"rehab":0,"long":132,"chiiki":0,"psy":0,"palliative":0,"disability":0},"note":""},{"id":"h_1770529070334","name":"澤田病院","address":"〒586-0014 大阪府河内長野市長野町7-11","tel":"0721-53-2313","nearest":"近鉄長野線　河内長野駅","lat":34.4494494,"lng":135.5715716,"tags":["一般"],"beds":{"acute":0,"general":64,"rehab":0,"long":0,"chiiki":0,"psy":0,"palliative":0,"disability":0},"note":""},{"id":"h_1770529142977","name":"滝谷病院","address":"〒586-0009 大阪府河内長野市松ケ丘中町1453","tel":"0721-53-5002","nearest":"南海高野線　滝谷駅","lat":34.4777274,"lng":135.5589263,"tags":["療養","障害"],"beds":{"acute":0,"general":0,"rehab":0,"long":36,"chiiki":0,"psy":0,"palliative":0,"disability":57},"note":""},{"id":"h_1770529200589","name":"青山第二病院","address":"〒586-0033 大阪府河内長野市喜多町192-1","tel":"0721-65-0003","nearest":"近鉄長野線　河内長野駅","lat":34.4451853,"lng":135.5684426,"tags":["療養"],"beds":{"acute":0,"general":0,"rehab":0,"long":57,"chiiki":0,"psy":0,"palliative":0,"disability":0},"note":""},{"id":"h_1770529596481","name":"近畿大学病院","address":"〒590-0197 大阪府堺市南区三原台1丁14番1号","tel":"072-288-7222","nearest":"南海泉北線 泉ケ丘駅","lat":34.4983578,"lng":135.5160013,"tags":["急性期"],"beds":{"acute":800,"general":0,"rehab":0,"long":0,"chiiki":0,"psy":0,"palliative":0,"disability":0},"note":"2025/11～堺市南区へ移転"},{"id":"h_1770529655350","name":"辻本病院","address":"〒589-0031 大阪府大阪狭山市池之原2丁目1128-2","tel":"072-366-5131","nearest":"南海高野線　大阪狭山市駅","lat":34.5024578,"lng":135.5467678,"tags":["一般","療養"],"beds":{"acute":0,"general":45,"rehab":0,"long":54,"chiiki":0,"psy":0,"palliative":0,"disability":0},"note":""},{"id":"h_1770529730525","name":"兵田病院","address":"〒589-0036 大阪府大阪狭山市山本東1394-1","tel":"072-366-2345","nearest":"南海高野線　北野田駅","lat":34.5111849,"lng":135.5417453,"tags":["一般","療養","地域包括"],"beds":{"acute":0,"general":40,"rehab":0,"long":41,"chiiki":0,"psy":0,"palliative":0,"disability":0},"note":"地域包括ケア病棟あり"},{"id":"h_1770529811749","name":"さくら会病院","address":"〒589-0011 大阪府大阪狭山市半田5丁目2610-1","tel":"072-366-5757","nearest":"南海高野線　金剛駅","lat":34.4980825,"lng":135.5532996,"tags":["急性期","回復期","地域包括"],"beds":{"acute":43,"general":0,"rehab":60,"long":0,"chiiki":44,"psy":0,"palliative":0,"disability":0},"note":""},{"id":"h_1770529915375","name":"樫本病院","address":"〒589-0012 大阪府大阪狭山市東茱萸木4丁目1151","tel":"072-366-1818","nearest":"南海高野線　滝谷駅","lat":34.4829496,"lng":135.5559555,"tags":["回復期","療養","地域包括","緩和ケア"],"beds":{"acute":0,"general":0,"rehab":35,"long":46,"chiiki":51,"psy":0,"palliative":16,"disability":0},"note":""},{"id":"h_1770529974372","name":"大阪さやま病院","address":"〒589-0032 大阪府大阪狭山市岩室3丁目216-1","tel":"072-365-0181","nearest":"南海高野線　金剛駅","lat":34.5028502,"lng":135.5400057,"tags":["精神"],"beds":{"acute":0,"general":0,"rehab":0,"long":0,"chiiki":0,"psy":279,"palliative":0,"disability":0},"note":""},{"id":"h_1770530049573","name":"青葉丘病院","address":"〒589-0004 大阪府大阪狭山市東池尻1丁目2198-1","tel":"072-365-3821","nearest":"南海高野線　大阪狭山市駅","lat":34.5074967,"lng":135.5587363,"tags":["一般","療養","精神"],"beds":{"acute":0,"general":54,"rehab":0,"long":270,"chiiki":0,"psy":357,"palliative":0,"disability":0},"note":""},{"id":"h_1770531331914","name":"運動器ケア しまだ病院","address":"〒583-0875 大阪府羽曳野市樫山100-1","tel":"072-953-1001","nearest":"近鉄南大阪線　藤井寺駅","lat":34.5582098,"lng":135.5798211,"tags":["急性期","地域包括"],"beds":{"acute":45,"general":0,"rehab":0,"long":0,"chiiki":43,"psy":0,"palliative":0,"disability":0},"note":""},{"id":"h_1770531395411","name":"大阪はびきの医療センター","address":"〒583-8588 大阪府羽曳野市はびきの3-7-1","tel":"072-957-2121","nearest":"近鉄南大阪線　古市駅 近鉄南大阪線　藤井寺駅","lat":34.5487358,"lng":135.590252,"tags":["急性期"],"beds":{"acute":354,"general":0,"rehab":0,"long":0,"chiiki":0,"psy":0,"palliative":0,"disability":0},"note":"結核病棟あり"},{"id":"h_1770531484243","name":"城山病院","address":"〒583-0872 大阪府羽曳野市はびきの2丁目8-1","tel":"072-958-1000","nearest":"近鉄南大阪線　古市駅 近鉄南大阪線　藤井寺駅","lat":34.5486455,"lng":135.5935526,"tags":["一般","回復期"],"beds":{"acute":0,"general":240,"rehab":51,"long":0,"chiiki":0,"psy":0,"palliative":0,"disability":0},"note":""},{"id":"h_1770531572118","name":"しらとり病院","address":"〒583-0857 大阪府羽曳野市誉田3丁目15-27","tel":"072-958-5566","nearest":"近鉄南大阪線　古市駅","lat":34.5577969,"lng":135.607579,"tags":["一般","療養","障害"],"beds":{"acute":0,"general":57,"rehab":0,"long":60,"chiiki":0,"psy":0,"palliative":0,"disability":60},"note":""},{"id":"h_1770531639799","name":"高村病院","address":"〒583-0886 大阪府羽曳野市恵我之荘3丁目1-3","tel":"072-939-0099","nearest":"近鉄南大阪線　恵我ノ荘駅","lat":34.5770497,"lng":135.5732778,"tags":["急性期","療養"],"beds":{"acute":137,"general":0,"rehab":0,"long":38,"chiiki":0,"psy":0,"palliative":0,"disability":0},"note":""},{"id":"h_1770531712571","name":"天仁病院","address":"〒583-0876 大阪府羽曳野市伊賀11-1","tel":"072-939-8561","nearest":"近鉄南大阪線　高鷲駅","lat":34.55649,"lng":135.5812576,"tags":["一般","療養"],"beds":{"acute":0,"general":41,"rehab":0,"long":102,"chiiki":0,"psy":0,"palliative":0,"disability":0},"note":""},{"id":"h_1770531765232","name":"丹比荘病院","address":"〒583-0884 大阪府羽曳野市野164-1","tel":"072-955-4468","nearest":"近鉄南大阪線　恵我ノ荘駅","lat":34.5606314,"lng":135.5709002,"tags":["精神"],"beds":{"acute":0,"general":0,"rehab":0,"long":0,"chiiki":0,"psy":310,"palliative":0,"disability":0},"note":""},{"id":"h_1770531984172","name":"青山脳神経外科病院","address":"〒583-0014 大阪府藤井寺市野中2-91","tel":"072-937-0012","nearest":"近鉄南大阪線　古市駅","lat":34.5621244,"lng":135.6056627,"tags":["急性期"],"beds":{"acute":50,"general":0,"rehab":0,"long":0,"chiiki":0,"psy":0,"palliative":0,"disability":0},"note":""},{"id":"h_1770532078303","name":"青山病院","address":"〒583-0014 大阪府藤井寺市野中4丁目16-25","tel":"072-953-1211","nearest":"近鉄南大阪線　古市駅","lat":34.5560492,"lng":135.5989996,"tags":["急性期","回復期","地域包括"],"beds":{"acute":40,"general":0,"rehab":50,"long":0,"chiiki":38,"psy":0,"palliative":0,"disability":0},"note":""},{"id":"h_1770532138991","name":"青山藤ケ丘病院","address":"〒583-0017 大阪府藤井寺市藤ケ丘3丁目13-16","tel":"072-931-1100","nearest":"近鉄南大阪線　古市駅 近鉄南大阪線　藤井寺駅","lat":34.5614482,"lng":135.5998127,"tags":["療養","地域包括"],"beds":{"acute":0,"general":0,"rehab":0,"long":30,"chiiki":30,"psy":0,"palliative":0,"disability":0},"note":""}]